[{"id":"3","name":"Chá de Copo","dateStart":"2020-01-11","dateEnd":"2020-01-17","location":{"city":"asd","district":"Alto da Bela Vista","street":"ds"}},{"id":"4","name":"Partida de vôlei","dateStart":"2020-01-11","dateEnd":"2020-01-17","location":{"city":"sds","district":"sd","street":"Rua monte castelo"}},{"id":6,"name":"Teste","dateStart":"2020-01-03","dateEnd":"2020-01-10","location":{"city":"Anápolis-GO","district":"Alto da Bela Vista","street":"Rua monte castelo"}},{"id":2,"name":"Chá de Panela da Ester","dateStart":"2020-01-24","dateEnd":"2020-01-24","location":{"city":"Anápolis-GO","district":"Ass. de Deus Ministério Madureira Boa Vista","street":"Rua Inglaterra N. 868"}},{"id":1,"name":"Teste","dateStart":"2020-01-01","dateEnd":"2020-01-03","location":{"city":"Anápolis-GO","district":"Jundiai","street":"Dalas Street"}},{"id":5,"name":"Teste","dateStart":"2020-01-04","dateEnd":"2020-01-05","location":{"city":"Anápolis-GO","district":"Alto da Bela Vista","street":"Rua Inglaterra N. 868"}},{"id":7,"name":"Teste","dateStart":"2020-01-01","dateEnd":"2020-01-17","location":{"city":"Anápolis-GO","district":"Alto da Bela Vista","street":"Rua monte castelo"}},{"id":8,"name":"Teste","dateStart":"2020-01-24","dateEnd":"2020-02-01","location":{"city":"Anápolis-GO","district":"Jundiai","street":"Dalas Street"}},{"id":9,"name":"Teste","dateStart":"2020-01-21","dateEnd":"2020-01-30","location":{"city":"Anápolis-GO","district":"Alto da Bela Vista","street":"Rua Sei la que fica no Jundiai"}},{"id":10,"name":"Teste","dateStart":"2020-01-01","dateEnd":"2020-02-01","location":{"city":"Anápolis-GO","district":"Jundiai","street":"Rua monte castelo"}}]